City_ID,City,Country,Date,Lat,Lng,Max Temp,Humidity,Cloudiness,Wind Speed
0,Kodiak,US,2021-01-28 16:07:23,57.79,-152.4072,35.6,87,90,6.91
1,Nikolskoye,RU,2021-01-28 16:07:23,59.7035,30.7861,33.8,86,75,8.95
2,Jejuri,IN,2021-01-28 16:07:23,18.2833,74.1667,72.18,39,18,6.85
3,Busselton,AU,2021-01-28 16:03:18,-33.65,115.3333,63.0,76,0,1.01
4,Mount Gambier,AU,2021-01-28 16:07:23,-37.8333,140.7667,68.0,94,90,4.61
5,Butaritari,KI,2021-01-28 16:04:47,3.0707,172.7902,80.96,81,90,18.63
6,Cape Town,ZA,2021-01-28 16:07:24,-33.9258,18.4232,73.4,43,0,18.41
7,Inongo,CD,2021-01-28 16:07:24,-1.95,18.2667,79.02,75,94,2.19
8,Barrow,US,2021-01-28 16:07:24,71.2906,-156.7887,-7.6,77,90,6.91
9,Atuona,PF,2021-01-28 16:07:24,-9.8,-139.0333,77.83,81,4,18.95
10,Petropavlovsk-Kamchatskiy,RU,2021-01-28 16:07:24,53.0452,158.6483,17.6,73,71,6.71
11,Ribeira Grande,PT,2021-01-28 16:07:24,38.5167,-28.7,62.6,94,40,17.27
12,Port Elizabeth,ZA,2021-01-28 16:05:02,-33.918,25.5701,73.4,53,0,9.22
13,Georgetown,MY,2021-01-28 16:07:24,5.4112,100.3354,78.8,89,20,2.3
14,Mataura,NZ,2021-01-28 16:07:25,-46.1927,168.8643,48.0,81,94,8.01
15,Vostok,RU,2021-01-28 16:07:25,46.4856,135.8833,-4.92,92,100,4.54
16,Flinders,AU,2021-01-28 16:07:25,-34.5833,150.8552,69.01,83,100,1.99
17,Pangoa,PE,2021-01-28 16:07:25,-12.1167,-73.0,76.71,77,96,1.19
18,Rikitea,PF,2021-01-28 16:07:25,-23.1203,-134.9692,79.03,69,16,3.36
19,Cherskiy,RU,2021-01-28 16:07:25,68.75,161.3,-26.97,85,100,2.46
20,Nieuwpoort,BE,2021-01-28 16:07:25,51.1244,2.7735,53.6,82,90,17.27
21,Ariquemes,BR,2021-01-28 16:07:26,-9.9133,-63.0408,82.74,77,75,3.31
22,Hay River,CA,2021-01-28 16:07:26,60.8156,-115.7999,-20.2,76,100,3.44
23,Castro,BR,2021-01-28 16:07:26,-24.7911,-50.0119,74.93,72,99,7.85
24,Ushuaia,AR,2021-01-28 16:07:26,-54.8,-68.3,44.6,76,75,13.8
25,Hobart,AU,2021-01-28 16:06:35,-42.8794,147.3294,59.0,55,90,11.5
26,Hasaki,JP,2021-01-28 16:05:07,35.7333,140.8333,36.0,93,75,3.44
27,Ternate,ID,2021-01-28 16:07:26,0.8,127.4,80.15,78,100,9.62
28,Poum,NC,2021-01-28 16:07:26,-20.2333,164.0167,80.33,79,82,13.0
29,Komsomolskiy,UZ,2021-01-28 16:07:27,40.4272,71.7189,33.8,55,0,6.91
30,Punta Arenas,CL,2021-01-28 16:04:47,-53.15,-70.9167,51.8,62,75,26.46
31,Vaini,TO,2021-01-28 16:07:27,-21.2,-175.2,75.2,88,90,25.32
32,Albany,US,2021-01-28 16:06:02,42.6001,-73.9662,24.01,51,21,8.01
33,Manggar,ID,2021-01-28 16:07:27,-2.8833,108.2667,77.63,87,100,8.66
34,Bethel,US,2021-01-28 16:03:05,41.3712,-73.414,26.01,54,90,13.8
35,Vao,NC,2021-01-28 16:07:27,-22.6667,167.4833,77.13,85,52,22.19
36,Arman,RU,2021-01-28 16:07:28,59.7,150.1667,-17.99,78,0,10.74
37,Parana,AR,2021-01-28 16:07:28,-31.732,-60.5238,88.0,57,4,8.01
38,Plymouth,US,2021-01-28 16:07:28,41.8334,-70.8328,34.0,86,90,11.5
39,Bredasdorp,ZA,2021-01-28 16:07:28,-34.5322,20.0403,75.2,46,0,14.97
40,Tasiilaq,GL,2021-01-28 16:07:28,65.6145,-37.6368,26.6,86,90,24.16
41,Soyo,AO,2021-01-28 16:04:45,-6.1349,12.3689,86.0,70,75,8.05
42,Porto Novo,BJ,2021-01-28 16:07:28,6.4965,2.6036,89.6,66,20,12.66
43,Carnarvon,AU,2021-01-28 16:03:45,-24.8667,113.6333,75.2,78,0,21.85
44,Tiznit,MA,2021-01-28 16:07:29,29.5833,-9.5,75.31,23,0,10.96
45,Usinsk,RU,2021-01-28 16:07:29,65.9939,57.5281,-19.62,86,76,10.02
46,San Jose,US,2021-01-28 16:07:25,37.3394,-121.895,51.01,87,90,12.66
47,Monte Santo De Minas,BR,2021-01-28 16:07:29,-21.1897,-46.9803,78.94,71,100,4.09
48,Kapaa,US,2021-01-28 16:07:29,22.0752,-159.319,73.4,68,90,21.85
49,Axim,GH,2021-01-28 16:07:29,4.8699,-2.2405,83.07,70,86,9.04
50,Hermanus,ZA,2021-01-28 16:07:30,-34.4187,19.2345,72.0,61,0,5.99
51,Yellowknife,CA,2021-01-28 16:07:24,62.456,-114.3525,-27.4,75,75,4.61
52,Sitka,US,2021-01-28 16:07:30,57.0531,-135.33,24.8,74,1,3.44
53,Hilo,US,2021-01-28 16:07:30,19.7297,-155.09,66.2,82,1,9.22
54,Asyut,EG,2021-01-28 16:07:30,27.181,31.1837,62.6,36,0,12.66
55,Puro,PH,2021-01-28 16:07:30,12.4841,123.3827,76.96,77,89,17.6
56,Lebu,CL,2021-01-28 16:07:30,-37.6167,-73.65,60.64,77,100,2.68
57,Jamestown,US,2021-01-28 16:07:30,42.097,-79.2353,18.0,67,75,11.45
58,Albert Lea,US,2021-01-28 16:07:31,43.648,-93.3683,12.2,79,1,9.22
59,Djambala,CG,2021-01-28 16:07:31,-2.5447,14.7533,78.58,65,14,5.93
60,Ruwi,OM,2021-01-28 16:07:31,23.5996,58.5507,71.6,60,0,8.05
61,Provideniya,RU,2021-01-28 16:07:31,64.3833,-173.3,1.08,87,98,17.13
62,Upernavik,GL,2021-01-28 16:07:31,72.7868,-56.1549,-10.53,89,68,10.45
63,Iida,JP,2021-01-28 16:05:07,35.5197,137.8207,39.0,88,74,5.01
64,Lysva,RU,2021-01-28 16:07:32,58.1086,57.8053,21.38,96,100,7.78
65,New Norfolk,AU,2021-01-28 16:07:32,-42.7826,147.0587,59.0,55,90,11.5
66,Bereda,ES,2021-01-28 16:07:32,43.2686,-7.5406,61.0,90,100,11.99
67,Thompson,CA,2021-01-28 16:03:56,55.7435,-97.8558,-31.0,75,40,2.3
68,Havoysund,NO,2021-01-28 16:07:32,70.9963,24.6622,26.6,54,40,20.71
69,Faya,SA,2021-01-28 16:07:33,18.3851,42.4509,68.0,42,0,11.5
70,Conde,BR,2021-01-28 16:07:33,-7.2597,-34.9075,87.8,58,40,13.8
71,Chuy,UY,2021-01-28 16:07:33,-33.6971,-53.4616,80.71,45,68,8.34
72,Saskylakh,RU,2021-01-28 16:07:33,71.9167,114.0833,-42.81,79,39,3.94
73,Victoria,HK,2021-01-28 16:03:04,22.2855,114.1577,64.0,55,0,1.01
74,Harper,LR,2021-01-28 16:07:33,4.375,-7.7169,81.9,78,82,6.76
75,Innoshima,JP,2021-01-28 16:07:33,34.2833,133.1833,42.01,82,71,28.97
76,Korla,CN,2021-01-28 16:07:33,41.7597,86.1469,22.73,83,0,1.77
77,San Ramon,US,2021-01-28 16:07:07,37.7799,-121.978,48.0,100,90,5.75
78,Leningradskiy,RU,2021-01-28 16:07:34,69.3833,178.4167,-22.99,86,84,3.02
79,Chokurdakh,RU,2021-01-28 16:07:34,70.6333,147.9167,-17.95,88,100,6.35
80,Bambous Virieux,MU,2021-01-28 16:07:34,-20.3428,57.7575,80.6,74,40,5.75
81,Khatanga,RU,2021-01-28 16:07:34,71.9667,102.5,-37.53,76,0,5.26
82,Bathsheba,BB,2021-01-28 16:07:34,13.2167,-59.5167,84.2,58,20,23.02
83,Nanortalik,GL,2021-01-28 16:07:34,60.1432,-45.2371,31.1,91,100,9.1
84,Nipawin,CA,2021-01-28 16:07:35,53.3668,-104.0009,3.2,85,90,6.91
85,Saint-Philippe,RE,2021-01-28 16:07:35,-21.3585,55.7679,84.2,61,90,4.61
86,Katsuura,JP,2021-01-28 16:07:35,35.1333,140.3,39.99,87,75,2.3
87,Belmonte,BR,2021-01-28 16:07:35,-15.8631,-38.8828,86.0,66,75,6.91
88,San Quintin,MX,2021-01-28 16:07:35,30.4833,-115.95,56.21,67,100,8.95
89,Srednekolymsk,RU,2021-01-28 16:07:35,67.45,153.6833,-18.15,88,100,6.51
90,Tatawin,TN,2021-01-28 16:07:35,32.9297,10.4518,71.6,28,0,4.61
91,Atexcatzingo,MX,2021-01-28 16:07:36,19.4667,-98.1333,60.8,51,40,17.27
92,Manokwari,ID,2021-01-28 16:07:36,-0.8667,134.0833,78.85,79,100,10.27
93,Kismayo,SO,2021-01-28 16:07:36,-0.3582,42.5454,78.15,82,1,11.65
94,Yulara,AU,2021-01-28 16:07:36,-25.2406,130.9889,86.0,48,92,9.22
95,Necochea,AR,2021-01-28 16:07:36,-38.5473,-58.7368,77.0,44,26,8.99
96,Saint George,US,2021-01-28 16:07:36,37.1041,-113.5841,42.8,52,1,8.05
97,Dangtu,CN,2021-01-28 16:07:36,31.5723,118.4928,36.0,69,0,2.24
98,Ostrovnoy,RU,2021-01-28 16:07:36,68.0531,39.5131,0.45,91,78,11.56
99,Esperance,AU,2021-01-28 16:03:45,-33.8667,121.9,59.0,82,0,6.91
100,Ilulissat,GL,2021-01-28 16:07:37,69.2167,-51.1,10.4,48,1,12.66
101,Dwarka,IN,2021-01-28 16:07:37,22.2394,68.9678,68.18,47,0,8.95
102,Bemidji,US,2021-01-28 16:07:37,47.4736,-94.8803,6.01,60,1,9.22
103,Rolla,US,2021-01-28 16:07:37,37.9514,-91.7713,30.0,74,75,3.44
104,Saldanha,ZA,2021-01-28 16:07:37,-33.0117,17.9442,73.4,46,0,20.71
105,Basar,IN,2021-01-28 16:07:37,27.9833,94.6667,50.99,50,0,2.57
106,Lorengau,PG,2021-01-28 16:07:38,-2.0226,147.2712,81.12,77,100,6.4
107,Ugoofaaru,MV,2021-01-28 16:07:38,5.6667,73.0,81.16,63,97,10.65
108,Marsh Harbour,BS,2021-01-28 16:07:38,26.5412,-77.0636,71.33,80,72,32.68
109,Puerto Ayora,EC,2021-01-28 16:07:38,-0.7393,-90.3518,84.2,70,20,12.66
110,Shenjiamen,CN,2021-01-28 16:04:06,29.9576,122.298,40.17,69,0,20.58
111,Nzega,RW,2021-01-28 16:07:38,-2.479,29.5564,61.79,85,12,1.5
112,Bronnoysund,NO,2021-01-28 16:03:33,65.4625,12.1997,26.6,68,20,13.8
113,Klaksvik,FO,2021-01-28 16:07:38,62.2266,-6.589,33.8,75,26,2.3
114,Riyadh,SA,2021-01-28 16:06:19,24.6877,46.7219,75.2,19,0,10.36
115,Cyangugu,RW,2021-01-28 16:07:39,-2.4846,28.9075,66.49,80,38,2.33
116,Pativilca,PE,2021-01-28 16:07:39,-10.7,-77.7833,76.77,61,10,9.28
117,Tuktoyaktuk,CA,2021-01-28 16:07:39,69.4541,-133.0374,-34.6,74,1,5.75
118,Atbasar,KZ,2021-01-28 16:07:39,51.8,68.3333,16.03,93,62,7.83
119,Constitucion,CL,2021-01-28 16:07:39,-35.3333,-72.4167,67.06,60,100,10.31
120,Joshimath,IN,2021-01-28 16:07:39,30.5667,79.5667,37.17,49,7,5.91
121,Sao Joao Da Barra,BR,2021-01-28 16:07:39,-21.6403,-41.0511,91.4,40,0,20.71
122,Lahad Datu,MY,2021-01-28 16:07:40,5.0268,118.327,75.56,92,33,5.79
123,Planaltina,BR,2021-01-28 16:07:40,-15.4528,-47.6142,84.0,39,75,8.05
124,Mercedes,AR,2021-01-28 16:04:27,-34.6515,-59.4307,92.17,29,94,6.02
125,Granville,AU,2021-01-28 16:07:40,-33.8333,151.0167,66.0,96,100,8.19
126,Isangel,VU,2021-01-28 16:07:40,-19.55,169.2667,78.73,84,98,12.93
127,Atar,MR,2021-01-28 16:07:40,20.5169,-13.0499,88.03,12,0,15.95
128,Port Alfred,ZA,2021-01-28 16:07:40,-33.5906,26.891,73.0,76,6,3.0
129,Bay Roberts,CA,2021-01-28 16:07:40,47.5999,-53.2648,30.0,80,90,13.8
130,Cabras,IT,2021-01-28 16:07:41,39.93,8.5314,52.0,91,20,21.99
131,Bor,RU,2021-01-28 16:07:41,56.3567,44.0669,32.0,86,90,4.47
132,Russell,US,2021-01-28 16:07:41,32.3502,-85.1999,45.0,49,1,13.8
133,Salalah,OM,2021-01-28 16:07:41,17.0151,54.0924,75.2,53,0,2.3
134,Bengkulu,ID,2021-01-28 16:07:41,-3.8004,102.2655,75.87,91,100,12.55
135,Havre-Saint-Pierre,CA,2021-01-28 16:07:41,50.2334,-63.5986,12.2,67,1,6.91
136,Karratha,AU,2021-01-28 16:07:41,-20.7377,116.8463,85.84,55,0,10.49
137,Acari,PE,2021-01-28 16:07:41,-15.4311,-74.6158,83.07,44,23,10.31
138,Siocon,PH,2021-01-28 16:07:42,7.7061,122.1353,77.85,83,46,8.61
139,Nola,IT,2021-01-28 16:07:42,40.922,14.5329,53.01,53,73,5.01
140,Olafsvik,IS,2021-01-28 16:07:42,64.8945,-23.7142,29.66,87,46,3.49
141,Nhulunbuy,AU,2021-01-28 16:07:42,-12.2333,136.7667,77.0,88,100,6.91
142,Neustadt,DE,2021-01-28 16:07:42,49.7117,12.0872,34.0,100,90,4.41
143,Severo-Kurilsk,RU,2021-01-28 16:07:42,50.6789,156.125,28.33,95,85,19.71
144,Santa Rosalia,MX,2021-01-28 16:07:42,27.3167,-112.2833,58.57,37,49,2.06
145,Marawi,PH,2021-01-28 16:07:43,7.9986,124.2928,73.0,95,58,4.0
146,Broken Hill,AU,2021-01-28 16:07:43,-31.95,141.4333,75.2,83,86,16.11
147,Yerbogachen,RU,2021-01-28 16:07:43,61.2767,108.0108,-40.4,80,26,6.17
148,Bima,ID,2021-01-28 16:07:43,-8.4667,118.7167,77.45,88,100,4.25
149,Erenhot,CN,2021-01-28 16:07:43,43.6475,111.9767,6.4,84,4,8.68
150,Las Lomas,PA,2021-01-28 16:07:43,8.4333,-82.4,84.2,65,20,8.05
151,Cayenne,GF,2021-01-28 16:07:43,4.9333,-52.3333,84.2,65,75,10.36
152,Iwanai,JP,2021-01-28 16:07:44,42.9744,140.5089,25.97,92,100,12.08
153,Tuatapere,NZ,2021-01-28 16:07:44,-46.1333,167.6833,48.0,81,85,8.01
154,Bluff,NZ,2021-01-28 16:07:44,-46.6,168.3333,48.0,81,73,8.01
155,Tiksi,RU,2021-01-28 16:07:44,71.6872,128.8694,-20.54,88,100,5.73
156,Buala,SB,2021-01-28 16:07:44,-8.145,159.5921,81.19,83,100,10.8
157,Emporia,US,2021-01-28 16:05:59,38.4039,-96.1817,26.6,80,90,13.8
158,Lavrentiya,RU,2021-01-28 16:07:44,65.5833,-171.0,-5.78,86,100,15.39
159,Ashland,US,2021-01-28 16:07:44,40.8167,-82.2665,19.4,68,90,10.36
160,Champerico,GT,2021-01-28 16:07:44,14.3,-91.9167,84.2,61,0,6.62
161,Mar Del Plata,AR,2021-01-28 16:07:45,-38.0023,-57.5575,78.8,44,75,11.5
162,Sao Filipe,CV,2021-01-28 16:07:45,14.8961,-24.4956,77.97,55,42,7.05
163,Warrington,GB,2021-01-28 16:03:18,53.3925,-2.5802,52.0,82,20,10.36
164,Lagoa,PT,2021-01-28 16:07:45,39.05,-27.9833,61.5,86,34,28.32
165,Kaitangata,NZ,2021-01-28 16:07:45,-46.2817,169.8464,46.99,83,94,5.99
166,Roald,NO,2021-01-28 16:07:45,62.5833,6.1333,33.8,75,75,18.41
167,Sorland,NO,2021-01-28 16:07:45,67.667,12.6934,32.0,64,0,17.27
168,Torbay,CA,2021-01-28 16:03:18,47.6666,-52.7314,30.0,80,90,13.8
169,Husavik,IS,2021-01-28 16:07:46,66.0449,-17.3389,1.4,85,0,5.75
170,San Cristobal,VE,2021-01-28 16:03:15,7.7669,-72.225,82.4,57,40,4.61
171,Pochutla,MX,2021-01-28 16:07:46,15.7432,-96.4661,82.0,57,75,4.7
172,Norman Wells,CA,2021-01-28 16:07:46,65.282,-126.8329,-23.8,76,75,4.61
173,East London,ZA,2021-01-28 16:07:46,-33.0153,27.9116,75.2,53,0,11.5
174,Grindavik,IS,2021-01-28 16:07:46,63.8424,-22.4338,26.6,80,0,8.05
175,Bom Jesus,BR,2021-01-28 16:07:46,-9.0744,-44.3586,91.36,42,100,7.7
176,Ayan,RU,2021-01-28 16:07:46,56.45,138.1667,-12.44,78,100,8.37
177,Damietta,EG,2021-01-28 16:07:10,31.4165,31.8133,60.8,55,40,12.66
178,High River,CA,2021-01-28 16:07:47,50.5834,-113.8687,8.6,92,64,3.44
179,Ponta Delgada,PT,2021-01-28 16:07:47,37.7333,-25.6667,64.99,94,75,14.97
180,Faanui,PF,2021-01-28 16:07:47,-16.4833,-151.75,80.96,70,42,8.84
181,Deputatskiy,RU,2021-01-28 16:07:47,69.3,139.9,-39.19,80,90,4.38
182,Council Bluffs,US,2021-01-28 16:03:13,41.2619,-95.8608,23.0,86,90,11.5
183,Inuvik,CA,2021-01-28 16:07:47,68.3499,-133.7218,-22.0,76,87,6.91
184,Fare,PF,2021-01-28 16:07:47,-16.7,-151.0167,80.73,70,75,8.77
185,Arraial Do Cabo,BR,2021-01-28 16:07:47,-22.9661,-42.0278,95.0,48,0,14.97
186,Iqaluit,CA,2021-01-28 16:07:48,63.7506,-68.5145,-9.4,64,1,36.82
187,Airai,TL,2021-01-28 16:07:48,-8.9266,125.4092,61.21,100,100,3.62
188,Bowen,AU,2021-01-28 16:07:48,-20.0167,148.2333,75.2,88,75,6.91
189,Kahului,US,2021-01-28 16:04:48,20.8947,-156.47,71.6,68,40,20.71
190,Kyabe,TD,2021-01-28 16:07:02,9.4515,18.9449,98.58,10,64,3.83
191,Kouroussa,GN,2021-01-28 16:07:48,10.65,-9.8833,97.84,9,0,5.17
192,Muros,ES,2021-01-28 16:07:48,42.7762,-9.0603,59.0,90,100,17.9
193,Hithadhoo,MV,2021-01-28 16:07:48,-0.6,73.0833,81.18,73,100,9.53
194,Dikson,RU,2021-01-28 16:07:49,73.5069,80.5464,-31.11,80,60,7.83
195,Nha Trang,VN,2021-01-28 16:05:07,12.25,109.1833,75.2,69,40,19.57
196,Huangmei,CN,2021-01-28 16:07:49,30.1924,116.025,41.2,67,0,4.9
197,Vardo,NO,2021-01-28 16:07:49,70.3705,31.1107,24.8,74,75,17.27
198,Ixtapa,MX,2021-01-28 16:07:49,20.7,-105.2,68.0,77,75,6.91
199,Palencia,ES,2021-01-28 16:07:49,42.4167,-4.5,60.01,70,88,5.99
200,Varhaug,NO,2021-01-28 16:07:49,58.6147,5.6457,24.8,80,0,4.61
201,Sept-Iles,CA,2021-01-28 16:07:50,50.2001,-66.3821,19.99,62,22,3.44
202,Medowie,AU,2021-01-28 16:07:50,-32.7333,151.8667,69.01,94,75,12.66
203,Mandalgovi,MN,2021-01-28 16:07:50,45.7625,106.2708,8.37,89,0,11.65
204,Bontang,ID,2021-01-28 16:07:50,0.1333,117.5,76.8,91,100,7.18
205,Maningrida,AU,2021-01-28 16:07:50,-12.0667,134.2667,76.68,89,100,4.32
206,Kavaratti,IN,2021-01-28 16:07:51,10.5669,72.642,80.55,74,90,10.89
207,Ambilobe,MG,2021-01-28 16:07:51,-13.2,49.05,78.35,82,100,1.32
208,Svetlogorsk,BY,2021-01-28 16:07:51,52.6333,29.7333,29.59,99,100,7.14
209,Novopokrovka,UA,2021-01-28 16:07:51,49.8425,36.5477,41.0,87,90,11.18
210,Mahebourg,MU,2021-01-28 16:07:51,-20.4081,57.7,80.6,74,40,5.75
211,Grand-Santi,GF,2021-01-28 16:07:51,4.25,-54.3833,83.8,62,96,3.38
212,Caravelas,BR,2021-01-28 16:07:51,-17.7125,-39.2481,86.23,53,52,9.64
213,Nara,JP,2021-01-28 16:04:11,34.6851,135.8049,42.01,79,61,17.0
214,Marsa Matruh,EG,2021-01-28 16:07:52,31.3525,27.2453,60.8,41,40,26.46
215,Tabory,RU,2021-01-28 16:07:52,58.5198,64.5495,29.21,98,100,12.84
216,Red Wing,US,2021-01-28 16:07:52,44.5625,-92.5338,15.01,62,1,5.75
217,Baruun-Urt,MN,2021-01-28 16:07:52,46.6806,113.2792,-9.35,86,86,8.97
218,Hobyo,SO,2021-01-28 16:07:52,5.3505,48.5268,77.22,71,19,20.45
219,Tautira,PF,2021-01-28 16:07:52,-17.7333,-149.15,75.2,83,40,1.14
220,Milkovo,RU,2021-01-28 16:07:53,54.7167,158.6167,-3.24,91,99,2.39
221,Minab,IR,2021-01-28 16:07:53,27.1467,57.0801,62.6,55,0,4.61
222,Knysna,ZA,2021-01-28 16:07:53,-34.0363,23.0471,69.8,52,0,9.22
223,Lambarene,GA,2021-01-28 16:07:53,-0.7001,10.2406,91.4,58,40,5.03
224,Altay,CN,2021-01-28 16:07:53,47.8667,88.1167,2.44,78,0,1.68
225,Sassandra,CI,2021-01-28 16:07:53,4.95,-6.0833,83.39,72,71,7.0
226,Los Llanos De Aridane,ES,2021-01-28 16:04:47,28.6585,-17.9182,71.6,73,0,4.61
227,Nijar,ES,2021-01-28 16:07:53,36.9665,-2.206,63.0,88,20,1.14
228,Abu Dhabi,AE,2021-01-28 16:02:56,24.4667,54.3667,71.6,68,0,4.61
229,Nhlangano,SZ,2021-01-28 16:07:54,-27.1167,31.2,63.43,91,100,3.15
230,Fort Nelson,CA,2021-01-28 16:07:54,58.8053,-122.7002,-23.8,76,20,5.75
231,Pahrump,US,2021-01-28 16:07:54,36.2083,-115.9839,43.0,59,100,4.0
232,Mega,ET,2021-01-28 16:07:54,4.05,38.3,72.32,33,85,10.51
233,Souillac,MU,2021-01-28 16:07:54,-20.5167,57.5167,80.6,74,40,5.75
234,Port-Cartier,CA,2021-01-28 16:07:54,50.0334,-66.8654,19.99,62,0,3.44
235,Zhangjiakou,CN,2021-01-28 16:07:54,40.81,114.8794,14.83,65,0,4.12
236,Neryungri,RU,2021-01-28 16:05:25,56.6709,124.6491,-43.38,76,94,1.95
237,Sechura,PE,2021-01-28 16:07:55,-5.5569,-80.8222,79.83,60,96,6.58
238,Gympie,AU,2021-01-28 16:07:01,-26.1898,152.665,75.0,80,43,1.99
239,Gornopravdinsk,RU,2021-01-28 16:07:55,60.05,69.9,27.63,98,100,11.83
240,Bandarbeyla,SO,2021-01-28 16:07:55,9.4942,50.8122,74.61,73,0,17.83
241,Sinop,TR,2021-01-28 16:07:56,41.7711,34.8709,31.84,96,94,2.59
242,Bara,NG,2021-01-28 16:07:56,10.3744,10.7288,93.2,7,11,21.85
243,Nyurba,RU,2021-01-28 16:07:56,63.2842,118.3319,-45.38,78,100,2.8
244,Ceres,US,2021-01-28 16:07:56,37.5949,-120.9577,46.99,93,90,11.5
245,Idaho Falls,US,2021-01-28 16:07:56,43.4666,-112.0341,35.6,69,90,11.5
246,Adrar,MR,2021-01-28 16:07:56,20.5022,-10.0711,82.85,15,0,13.89
247,Zemio,CF,2021-01-28 16:07:56,5.0314,25.1361,90.84,28,90,2.42
248,Berlevag,NO,2021-01-28 16:07:56,70.8578,29.0864,24.8,58,75,17.27
249,College,US,2021-01-28 16:07:57,64.8569,-147.8028,-11.0,76,75,2.59
250,Tiarei,PF,2021-01-28 16:07:57,-17.5333,-149.3333,75.2,83,40,1.14
251,Myaundzha,RU,2021-01-28 16:07:57,63.0494,147.1858,-25.24,81,34,3.78
252,General Roca,AR,2021-01-28 16:07:57,-39.0333,-67.5833,69.8,35,0,5.75
253,Svetlaya,RU,2021-01-28 16:07:57,46.5389,138.3297,9.97,87,100,10.6
254,Nizhniy Tsasuchey,RU,2021-01-28 16:07:57,50.5167,115.1333,-11.38,84,100,4.23
255,Ormara,PK,2021-01-28 16:07:57,25.2088,64.6357,69.64,52,0,6.17
256,Saryg-Sep,RU,2021-01-28 16:07:57,51.5,95.6,3.7,92,99,1.21
257,Qingdao,CN,2021-01-28 16:07:58,36.0986,120.3719,26.01,49,0,2.24
258,Honiara,SB,2021-01-28 16:07:58,-9.4333,159.95,79.25,82,100,8.66
259,Opuwo,NA,2021-01-28 16:07:58,-18.0607,13.84,73.89,67,93,16.08
260,Dingle,PH,2021-01-28 16:07:58,10.9995,122.6711,73.17,90,64,9.22
261,Port Hawkesbury,CA,2021-01-28 16:06:12,45.6169,-61.3485,30.0,74,90,10.36
262,Mirwah,YE,2021-01-28 16:07:58,13.9228,43.9176,70.03,44,0,1.74
263,Broome,US,2021-01-28 16:07:58,42.2506,-75.833,19.99,67,90,20.71
264,Langsa,ID,2021-01-28 16:07:58,4.4683,97.9683,73.45,94,36,2.1
265,Naryan-Mar,RU,2021-01-28 16:07:58,67.6713,53.087,-27.08,85,5,9.93
266,Cabedelo,BR,2021-01-28 16:07:59,-6.9811,-34.8339,87.8,58,40,13.8
267,Otjimbingwe,NA,2021-01-28 16:07:59,-22.35,16.1333,93.34,20,3,15.48
268,Osorno,CL,2021-01-28 16:06:11,-40.5667,-73.15,64.4,61,75,10.36
269,Cabo San Lucas,MX,2021-01-28 16:05:45,22.8909,-109.9124,66.2,45,75,3.44
270,Haimen,CN,2021-01-28 16:07:59,23.1935,116.6142,57.2,82,0,6.71
271,Gamagori,JP,2021-01-28 16:07:59,34.8333,137.2333,50.0,53,20,21.85
272,Half Moon Bay,US,2021-01-28 16:07:34,37.4636,-122.4286,51.8,93,90,3.44
273,Tonekabon,IR,2021-01-28 16:07:59,36.8163,50.8738,53.6,87,75,2.3
274,Oktyabrskiy,RU,2021-01-28 16:07:59,54.4815,53.471,16.05,95,100,7.85
275,Port Moresby,PG,2021-01-28 16:08:00,-9.4431,147.1797,77.0,88,40,17.27
276,Ambovombe,MG,2021-01-28 16:08:00,-25.1667,46.0833,81.64,78,27,12.93
277,Tezu,IN,2021-01-28 16:08:00,27.9167,96.1667,61.07,29,0,4.88
278,Seoul,KR,2021-01-28 16:05:20,37.5683,126.9778,17.6,38,0,20.71
279,Flin Flon,CA,2021-01-28 16:08:00,54.7682,-101.865,-4.0,71,90,6.91
280,Richards Bay,ZA,2021-01-28 16:08:00,-28.783,32.0377,70.83,87,97,5.53
281,Alofi,NU,2021-01-28 16:08:00,-19.0595,-169.9187,75.2,94,100,8.05
282,Laguna,US,2021-01-28 16:05:43,38.421,-121.4238,48.2,87,90,13.8
283,Stabat,ID,2021-01-28 16:07:26,3.761,98.4513,77.0,94,40,2.3
284,Asfi,MA,2021-01-28 16:08:01,32.2994,-9.2372,67.05,69,0,4.14
285,Meulaboh,ID,2021-01-28 16:08:01,4.1363,96.1285,77.07,86,95,4.25
286,Emba,KZ,2021-01-28 16:08:01,48.8264,58.1442,15.58,92,4,12.06
287,Ponta Do Sol,PT,2021-01-28 16:08:01,32.6667,-17.1,63.0,73,84,4.0
288,Markova,UA,2021-01-28 16:08:01,48.6758,24.4138,30.2,55,0,4.47
289,Manyana,BW,2021-01-28 16:08:01,-23.4,21.7167,90.52,21,99,7.87
290,Hambantota,LK,2021-01-28 16:08:01,6.1241,81.1185,78.8,94,90,3.44
291,Christchurch,NZ,2021-01-28 16:08:02,-43.5333,172.6333,48.0,81,20,8.05
292,Boa Vista,BR,2021-01-28 16:04:03,2.8197,-60.6733,84.2,51,75,13.8
293,Hofn,IS,2021-01-28 16:08:02,64.2539,-15.2082,32.0,69,75,6.91
294,Makakilo City,US,2021-01-28 16:08:02,21.3469,-158.0858,73.4,73,20,5.75
295,Luganville,VU,2021-01-28 16:08:02,-15.5333,167.1667,77.18,80,100,2.77
296,Igrim,RU,2021-01-28 16:08:02,63.1906,64.4162,-8.59,91,99,3.85
297,Janauba,BR,2021-01-28 16:08:02,-15.8025,-43.3089,88.52,33,0,7.45
298,Mandera,KE,2021-01-28 16:08:03,3.9366,41.867,90.34,18,81,8.79
299,Hirara,JP,2021-01-28 16:08:03,24.8,125.2833,59.81,74,75,30.65
300,Ketchikan,US,2021-01-28 16:08:03,55.3422,-131.6461,21.2,93,1,4.61
301,Fukue,JP,2021-01-28 16:08:03,32.6881,128.8419,38.55,83,85,35.37
302,Laredo,US,2021-01-28 16:03:57,27.5064,-99.5075,50.0,57,1,6.91
303,Lenina,RU,2021-01-28 16:08:03,46.0667,39.7833,40.53,85,99,13.29
304,Mashhad,IR,2021-01-28 16:08:03,36.297,59.6062,46.4,42,0,6.91
305,Kousseri,CM,2021-01-28 16:08:04,12.0769,15.0306,93.2,5,40,14.97
306,Traverse City,US,2021-01-28 16:08:04,44.7631,-85.6206,19.4,73,90,9.22
307,Saint-Francois,FR,2021-01-28 16:08:04,46.4154,3.9054,55.4,88,90,10.36
308,Jiuquan,CN,2021-01-28 16:08:04,39.7432,98.5174,22.71,70,0,4.43
309,Ciudad Bolivar,VE,2021-01-28 16:08:04,8.1222,-63.5497,87.91,45,89,12.66
310,Itoman,JP,2021-01-28 16:08:04,26.1247,127.6694,60.8,55,75,27.63
311,Fortuna,US,2021-01-28 16:08:04,40.5982,-124.1573,44.6,87,90,10.36
312,Kahramanmaras,TR,2021-01-28 16:04:30,38.0,37.0,44.6,81,75,6.91
313,Galle,LK,2021-01-28 16:08:04,6.0367,80.217,79.63,79,98,3.83
314,Livingston,GB,2021-01-28 16:08:05,55.9029,-3.5226,39.2,93,90,5.75
315,Avarua,CK,2021-01-28 16:08:05,-21.2078,-159.775,78.8,83,20,5.75
316,Bluefield,US,2021-01-28 16:04:29,37.2698,-81.2223,21.99,73,90,10.36
317,Santo Domingo,DO,2021-01-28 16:06:28,18.5001,-69.9886,84.2,65,20,11.5
318,Mareeba,AU,2021-01-28 16:08:05,-17.0,145.4333,75.2,88,90,8.05
319,Paraiso,CR,2021-01-28 16:08:05,9.8383,-83.8656,73.4,56,20,23.02
320,Pevek,RU,2021-01-28 16:08:05,69.7008,170.3133,-19.39,85,71,1.28
321,Abu Samrah,SY,2021-01-28 16:08:06,35.3029,37.1841,46.63,80,100,13.31
322,Hamilton,US,2021-01-28 16:08:06,39.1834,-84.5333,27.0,63,90,6.91
323,Sanming,CN,2021-01-28 16:08:06,26.2486,117.6186,44.98,76,0,2.28
324,Diego De Almagro,CL,2021-01-28 16:08:06,-26.3667,-70.05,82.06,20,0,11.56
325,Chapais,CA,2021-01-28 16:08:06,49.7834,-74.8492,-0.4,71,90,9.22
326,Batagay-Alyta,RU,2021-01-28 16:08:06,67.8006,130.4114,-39.59,80,90,1.95
327,Fujin,CN,2021-01-28 16:08:06,47.26,132.0322,-8.75,90,100,6.04
328,Beyneu,KZ,2021-01-28 16:08:06,45.3167,55.2,37.8,72,100,26.73
329,Northam,GB,2021-01-28 16:08:06,51.0333,-4.2167,52.0,96,100,4.0
330,Viedma,AR,2021-01-28 16:08:07,-40.8135,-62.9967,75.0,33,45,12.88
331,Yorosso,ML,2021-01-28 16:08:07,12.3536,-4.7761,95.4,8,0,5.57
332,Qaanaaq,GL,2021-01-28 16:08:07,77.484,-69.3632,-11.25,69,0,10.8
333,Pucallpa,PE,2021-01-28 16:08:07,-8.3791,-74.5539,84.2,70,40,8.05
334,Vasai,IN,2021-01-28 16:08:07,19.47,72.8,73.4,68,0,4.61
335,Amapa,BR,2021-01-28 16:08:07,1.0,-52.0,88.38,55,85,2.82
336,Byron Bay,AU,2021-01-28 16:08:07,-28.65,153.6167,75.2,73,40,10.36
337,De-Kastri,RU,2021-01-28 16:08:07,51.4667,140.7833,-9.44,83,87,5.79
338,Kefamenanu,ID,2021-01-28 16:08:08,-9.4467,124.4781,72.61,92,100,4.81
339,La Ronge,CA,2021-01-28 16:08:08,55.1001,-105.2842,-0.4,85,100,9.22
340,Khandyga,RU,2021-01-28 16:08:08,62.6667,135.6,-54.09,70,89,0.47
341,Melilla,ES,2021-01-28 16:08:08,35.2937,-2.9383,75.2,64,20,3.44
342,Mizdah,LY,2021-01-28 16:08:08,31.4451,12.9801,59.79,52,0,17.56
343,Leshukonskoye,RU,2021-01-28 16:08:08,64.8989,45.7622,-4.41,91,92,5.06
344,Ruteng,ID,2021-01-28 16:08:08,-8.6136,120.4721,64.96,100,100,4.68
345,Tual,ID,2021-01-28 16:08:08,-5.6667,132.75,83.34,76,100,9.01
346,Darhan,MN,2021-01-28 16:08:09,49.4867,105.9228,2.43,86,91,6.96
347,Geraldton,AU,2021-01-28 16:04:05,-28.7667,114.6,73.4,73,0,18.41
348,Esparta,HN,2021-01-28 16:08:09,15.7437,-87.1766,82.4,89,40,4.61
349,Gayeri,BF,2021-01-28 16:08:09,12.6497,0.4931,96.15,9,0,10.16
350,Venado,MX,2021-01-28 16:08:09,22.9333,-101.0833,50.2,63,56,8.86
351,Atherton,GB,2021-01-28 16:08:09,53.5237,-2.4935,52.0,77,98,4.52
352,Rio Cuarto,AR,2021-01-28 16:05:52,-33.1307,-64.3499,83.32,31,46,8.57
353,Bacolod,PH,2021-01-28 16:06:04,10.6667,122.95,77.13,82,77,17.78
354,Sakakah,SA,2021-01-28 16:08:10,29.9697,40.2064,64.4,29,0,9.22
355,Bakel,SN,2021-01-28 16:08:10,14.905,-12.4568,97.54,7,0,10.0
356,Pacific Grove,US,2021-01-28 16:07:47,36.6177,-121.9166,53.01,87,90,10.36
357,Cidreira,BR,2021-01-28 16:08:10,-30.1811,-50.2056,77.14,70,54,7.76
358,Longyearbyen,SJ,2021-01-28 16:08:10,78.2186,15.6401,-0.4,65,20,28.77
359,Pontalina,BR,2021-01-28 16:08:10,-17.525,-49.4472,84.7,53,100,6.44
360,Naze,JP,2021-01-28 16:08:10,28.3667,129.4833,52.16,77,22,24.45
361,Kathu,TH,2021-01-28 16:08:10,7.9178,98.3332,77.0,94,20,2.3
362,Port Lincoln,AU,2021-01-28 16:08:11,-34.7333,135.8667,63.0,91,100,6.31
363,Saint-Joseph,RE,2021-01-28 16:08:11,-21.3667,55.6167,84.2,61,90,4.61
364,Mongoumba,CF,2021-01-28 16:08:11,3.6415,18.5936,95.92,25,34,4.68
365,Sable-Sur-Sarthe,FR,2021-01-28 16:08:11,47.8376,-0.3329,55.99,94,90,12.66
366,Uyuni,BO,2021-01-28 16:08:11,-20.4597,-66.825,55.47,31,0,10.67
367,Kalemie,CD,2021-01-28 16:08:11,-5.9475,29.1947,76.55,79,10,5.88
368,Jalu,LY,2021-01-28 16:08:11,29.0331,21.5482,61.74,31,0,13.53
369,Mill Valley,US,2021-01-28 16:08:11,37.906,-122.545,50.0,87,87,4.54
370,Matamba,TZ,2021-01-28 16:08:12,-8.9833,33.9667,60.33,93,38,1.52
371,Coihueco,CL,2021-01-28 16:08:12,-36.6167,-71.8333,73.4,43,75,6.91
372,Coquimbo,CL,2021-01-28 16:08:12,-29.9533,-71.3436,66.2,68,20,13.8
373,Clarence Town,AU,2021-01-28 16:08:12,-32.5833,151.7833,69.01,94,75,12.66
374,Pastavy,BY,2021-01-28 16:08:12,55.1168,26.8326,27.23,98,100,3.44
375,Dunedin,NZ,2021-01-28 16:08:12,-45.8742,170.5036,46.99,79,76,5.99
376,Chabahar,IR,2021-01-28 16:08:12,25.2919,60.643,69.73,55,0,10.02
377,Morant Bay,JM,2021-01-28 16:08:12,17.8815,-76.4093,84.2,65,20,3.44
378,Namibe,AO,2021-01-28 16:06:11,-15.1961,12.1522,77.77,66,74,12.82
379,Hokitika,NZ,2021-01-28 16:08:13,-42.7167,170.9667,50.29,72,61,9.28
380,Pasighat,IN,2021-01-28 16:08:13,28.0667,95.3333,60.89,36,0,3.94
381,Keti Bandar,PK,2021-01-28 16:08:13,24.1447,67.4497,64.71,62,0,7.18
382,Voznesenye,RU,2021-01-28 16:08:13,61.0106,35.4781,22.26,97,91,6.15
383,Sayan,PE,2021-01-28 16:08:13,-11.1361,-77.1933,80.1,42,21,8.57
384,Dvinskoy,RU,2021-01-28 16:08:13,62.1535,45.1175,24.26,98,97,1.5
385,San Bartolome De Tirajana,ES,2021-01-28 16:08:13,27.9248,-15.5733,73.99,78,0,5.75
386,Carauari,BR,2021-01-28 16:07:39,-4.8828,-66.8958,88.03,60,94,2.75
387,Quelimane,MZ,2021-01-28 16:08:14,-17.8786,36.8883,87.8,70,20,11.5
388,Salvador,SV,2021-01-28 16:06:01,13.8333,-88.9167,91.4,38,0,11.5
389,Ancud,CL,2021-01-28 16:08:14,-41.8697,-73.8203,64.0,72,75,5.75
390,Arbazh,RU,2021-01-28 16:08:14,57.6804,48.3065,21.7,97,100,7.27
391,Burgeo,CA,2021-01-28 16:08:14,47.6167,-57.6152,25.81,89,33,13.49
392,Kavieng,PG,2021-01-28 16:08:14,-2.5744,150.7967,82.65,77,94,10.76
393,Reyes,BO,2021-01-28 16:08:14,-14.3167,-67.3833,81.55,70,93,8.61
394,Abha,SA,2021-01-28 16:08:15,18.2164,42.5053,68.0,42,0,11.5
395,Anadyr,RU,2021-01-28 16:08:15,64.75,177.4833,6.8,72,40,4.47
396,Jizan,SA,2021-01-28 16:08:15,17.3333,42.6667,80.6,69,20,9.22
397,Quibdo,CO,2021-01-28 16:08:15,5.6947,-76.6611,81.79,78,84,3.49
398,Mayo,US,2021-01-28 16:08:15,38.8876,-76.5119,32.0,55,1,19.57
399,Porbandar,IN,2021-01-28 16:08:15,21.6422,69.6093,65.16,42,0,14.94
400,Pachora,IN,2021-01-28 16:08:15,20.6667,75.35,73.2,33,0,4.43
401,Pando,UY,2021-01-28 16:08:15,-34.7167,-55.95,86.0,73,75,6.91
402,Yarkovo,RU,2021-01-28 16:08:16,57.4028,67.0786,27.12,95,100,13.51
403,Xai-Xai,MZ,2021-01-28 16:08:16,-25.0519,33.6442,77.79,84,74,17.29
404,Qaqortoq,GL,2021-01-28 16:08:16,60.7167,-46.0333,46.4,29,75,21.85
405,Camacha,PT,2021-01-28 16:08:16,33.0833,-16.3333,62.6,94,75,6.91
406,Kathmandu,NP,2021-01-28 16:04:00,27.7167,85.3167,46.4,76,20,4.61
407,Port Blair,IN,2021-01-28 16:08:16,11.6667,92.75,79.86,82,5,9.42
408,Stepantsevo,RU,2021-01-28 16:08:16,56.1314,41.7032,28.36,98,100,8.05
409,Towada,JP,2021-01-28 16:08:17,40.6127,141.2067,36.0,86,90,10.36
410,Okato,NZ,2021-01-28 16:08:17,-39.2,173.8833,48.99,87,32,1.01
411,Capaci,IT,2021-01-28 16:08:17,38.1711,13.2393,57.99,67,72,10.36
412,Svay Rieng,KH,2021-01-28 16:08:17,11.0879,105.7993,75.96,73,85,6.15
413,Lata,PT,2021-01-28 16:08:17,40.1629,-8.3327,62.01,82,75,2.3
414,Moree,AU,2021-01-28 16:08:17,-29.4667,149.85,73.4,53,1,16.11
415,Marystown,CA,2021-01-28 16:05:48,47.1666,-55.1483,25.54,89,88,11.14
416,Aklavik,CA,2021-01-28 16:08:17,68.2191,-135.0107,-23.8,76,75,3.44
417,Pangai,TO,2021-01-28 16:08:18,-19.8,-174.35,81.14,75,100,37.69
418,Atambua,ID,2021-01-28 16:08:18,-9.1061,124.8925,74.37,89,100,3.91
419,Humaita,BR,2021-01-28 16:08:18,-7.5061,-63.0208,80.17,80,100,2.01
420,La Palma,US,2021-01-28 16:08:18,33.8464,-118.0467,46.4,100,75,4.41
421,Fairbanks,US,2021-01-28 16:08:18,64.8378,-147.7164,-11.0,69,75,2.46
422,Pangnirtung,CA,2021-01-28 16:08:18,66.1451,-65.7125,3.2,60,1,4.61
423,Gaurnadi,BD,2021-01-28 16:08:18,22.9667,90.2333,63.7,39,0,6.26
424,Maceio,BR,2021-01-28 16:07:14,-9.6658,-35.7353,82.4,65,75,9.22
425,Vilyuysk,RU,2021-01-28 16:08:19,63.7553,121.6247,-47.24,78,100,2.21
426,Bolobo,CD,2021-01-28 16:07:09,-2.1667,16.2333,83.61,61,60,1.92
427,Colac,AU,2021-01-28 16:08:19,-38.3333,143.5833,61.0,97,100,11.74
428,Sabang,ID,2021-01-28 16:08:19,5.8933,95.3214,81.37,79,19,10.96
429,Vilnius,LT,2021-01-28 16:03:42,54.6892,25.2798,24.01,93,75,3.44
430,Xunchang,CN,2021-01-28 16:08:19,28.4543,104.715,49.37,71,2,1.05
431,Alihe,CN,2021-01-28 16:05:09,50.5667,123.7167,-24.09,81,23,2.48
432,Port-Gentil,GA,2021-01-28 16:08:19,-0.7193,8.7815,86.0,70,20,12.66
433,Ugep,NG,2021-01-28 16:08:20,5.8086,8.0812,97.68,26,49,3.89
434,North Battleford,CA,2021-01-28 16:08:20,52.7834,-108.2847,3.2,85,90,12.66
435,Salinas,US,2021-01-28 16:04:19,36.6777,-121.6555,51.8,82,90,16.11
436,Oranjestad,AW,2021-01-28 16:08:20,12.524,-70.027,84.2,65,20,23.02
437,Vila Franca Do Campo,PT,2021-01-28 16:08:20,37.7167,-25.4333,64.99,94,75,14.97
438,Ferrol,ES,2021-01-28 16:08:20,43.4832,-8.2369,60.01,82,75,11.5
439,Nicolas Bravo,MX,2021-01-28 16:08:20,18.45,-88.9167,82.4,78,40,9.22
440,Binga,ZW,2021-01-28 16:08:20,-17.6203,27.3414,78.48,79,100,4.65
441,San Luis,AR,2021-01-28 16:08:21,-33.295,-66.3356,83.8,37,57,7.02
442,Mineiros,BR,2021-01-28 16:08:21,-17.5694,-52.5511,80.87,69,82,7.27
443,Fasa,IR,2021-01-28 16:08:21,28.9383,53.6482,57.2,23,0,3.29
444,Mardin,TR,2021-01-28 16:05:31,37.3131,40.7436,51.8,71,75,3.44
445,Nueva Gerona,CU,2021-01-28 16:08:21,21.8833,-82.8,78.26,63,0,10.54
446,Talnakh,RU,2021-01-28 16:07:20,69.4865,88.3972,-32.4,75,0,6.08
447,Spokoynaya,RU,2021-01-28 16:08:21,44.2468,41.4015,39.18,80,85,5.32
448,Republic,US,2021-01-28 16:08:21,37.12,-93.4802,30.0,80,1,4.0
449,Sheltozero,RU,2021-01-28 16:08:22,61.3667,35.3667,21.72,98,81,6.51
450,Lai,TD,2021-01-28 16:08:22,9.3952,16.2989,99.7,9,55,5.3
451,Yarada,IN,2021-01-28 16:08:22,17.65,83.2667,77.0,88,40,2.3
452,Padang,ID,2021-01-28 16:08:22,-0.9492,100.3543,80.6,78,75,2.3
453,Ozinki,RU,2021-01-28 16:08:22,51.1786,49.6769,25.77,97,100,17.43
454,Ekhabi,RU,2021-01-28 16:08:22,53.5102,142.9671,1.92,94,100,5.77
455,Brae,GB,2021-01-28 16:08:22,60.3964,-1.353,35.6,80,20,5.75
456,Lompoc,US,2021-01-28 16:07:28,34.6391,-120.4579,51.8,93,90,11.95
457,Fatsa,TR,2021-01-28 16:08:22,41.0278,37.5014,44.6,100,75,5.75
458,Bosaso,SO,2021-01-28 16:08:23,11.2842,49.1816,75.38,69,0,8.81
459,Shihezi,CN,2021-01-28 16:08:23,44.3,86.0333,3.96,91,97,0.2
460,Matara,LK,2021-01-28 16:08:23,5.9485,80.5353,77.94,82,99,4.83
461,Stanislav,UA,2021-01-28 16:08:23,46.5691,32.1478,32.0,93,90,26.84
462,Along,IN,2021-01-28 16:08:23,28.1667,94.7667,52.75,48,0,2.3
463,Pitimbu,BR,2021-01-28 16:08:23,-7.4706,-34.8086,87.8,58,40,13.8
464,Balykshi,KZ,2021-01-28 16:08:23,47.0667,51.8667,37.4,60,40,26.84
465,Chapleau,CA,2021-01-28 16:08:23,47.8405,-83.4034,-5.8,77,90,5.75
466,Umm Lajj,SA,2021-01-28 16:08:24,25.0213,37.2685,73.42,61,2,11.01
467,Waddan,LY,2021-01-28 16:08:24,29.1614,16.139,65.44,32,0,12.8
468,Melton,AU,2021-01-28 16:08:24,-37.6833,144.5833,68.0,76,90,5.01
469,Trairi,BR,2021-01-28 16:08:24,-3.2778,-39.2689,88.63,54,100,15.08
470,Plettenberg Bay,ZA,2021-01-28 16:08:24,-34.0527,23.3716,67.89,62,0,3.83
471,Wagrowiec,PL,2021-01-28 16:08:24,52.8084,17.1996,32.0,75,74,1.99
472,Manoel Urbano,BR,2021-01-28 16:08:24,-8.8389,-69.2597,79.11,93,82,3.49
473,Kem,RU,2021-01-28 16:08:24,64.9555,34.5793,12.52,96,99,8.68
474,Saint Peter,BB,2021-01-28 16:08:25,13.25,-59.6167,84.2,58,20,23.02
475,Gachala,CO,2021-01-28 16:08:25,4.6924,-73.5204,66.2,45,40,4.61
476,Phan Thiet,VN,2021-01-28 16:08:25,10.9333,108.1,71.98,76,98,12.64
477,Boras,SE,2021-01-28 16:08:25,57.721,12.9401,25.0,80,0,10.36
478,Klyuchi,RU,2021-01-28 16:08:25,52.2667,79.1667,18.1,97,68,11.86
479,Binzhou,CN,2021-01-28 16:05:05,37.3667,118.0167,25.0,41,0,8.25
480,Arlit,NE,2021-01-28 16:08:25,18.7369,7.3853,84.29,13,0,10.69
481,Uusikaupunki,FI,2021-01-28 16:08:25,60.8004,21.4084,24.8,86,90,3.44
482,Moche,PE,2021-01-28 16:08:26,-8.1711,-79.0092,68.0,88,40,10.36
483,Tura,IN,2021-01-28 16:08:26,25.5198,90.2201,59.9,64,0,3.15
484,Emerald,AU,2021-01-28 16:08:26,-23.5333,148.1667,78.8,65,90,17.27
485,Lima,PE,2021-01-28 16:07:08,-12.0432,-77.0282,73.4,68,0,10.36
486,Canmore,CA,2021-01-28 16:08:26,51.0834,-115.3521,14.0,85,82,4.09
487,Kuusankoski,FI,2021-01-28 16:08:26,60.907,26.6244,26.6,100,90,5.75
488,Tamale,GH,2021-01-28 16:08:26,9.4008,-0.8393,101.16,8,0,5.84
489,Chumikan,RU,2021-01-28 16:08:26,54.7183,135.315,-11.51,88,100,10.36
490,Vrangel,RU,2021-01-28 16:08:26,42.7297,133.0839,17.47,91,100,25.61
491,Edeia,BR,2021-01-28 16:08:27,-17.3383,-49.9314,85.64,54,91,6.17
492,Yanam,IN,2021-01-28 16:08:27,16.7333,82.2167,78.8,78,4,4.61
493,Marathon,US,2021-01-28 16:08:27,44.9,-89.7668,7.0,78,90,4.61
494,Zhigansk,RU,2021-01-28 16:08:27,66.7697,123.3711,-52.58,76,77,5.01
495,Ranong,TH,2021-01-28 16:08:27,9.9658,98.6348,76.14,85,40,4.21
496,Vernon,CA,2021-01-28 16:06:46,50.2581,-119.2691,30.99,93,100,3.44
497,Marzuq,YE,2021-01-28 16:08:27,14.4,46.4667,66.4,37,0,7.78
498,Coihaique,CL,2021-01-28 16:04:48,-45.5752,-72.0662,53.6,54,75,6.91
499,Henties Bay,NA,2021-01-28 16:08:28,-22.116,14.2845,70.0,79,3,7.58
500,Roseburg,US,2021-01-28 16:03:34,43.2165,-123.3417,39.2,93,90,1.83
501,Potosi,BO,2021-01-28 16:08:28,-19.5836,-65.7531,56.21,33,2,6.67
502,San Gabriel,US,2021-01-28 16:08:28,34.0961,-118.1058,51.01,75,1,4.18
503,Turayf,SA,2021-01-28 16:08:28,31.6725,38.6637,55.4,62,40,9.22
504,Luderitz,NA,2021-01-28 16:08:28,-26.6481,15.1594,74.34,50,0,31.38
505,Cap Malheureux,MU,2021-01-28 16:08:28,-19.9842,57.6142,80.01,75,20,1.99
506,Fort Saint James,CA,2021-01-28 16:08:28,54.4333,-124.25,-12.08,87,35,0.54
507,Chateau-Gontier,FR,2021-01-28 16:08:29,47.8333,-0.7,55.99,88,90,10.36
508,Acevedo,CO,2021-01-28 16:08:29,1.8361,-75.855,79.14,59,14,1.66
509,Orlik,RU,2021-01-28 16:08:29,52.5178,99.825,5.47,86,99,8.28
510,Portovelo,EC,2021-01-28 16:08:29,-3.7167,-79.6167,77.0,83,90,6.91
511,Englewood,US,2021-01-28 16:06:56,39.6478,-104.9878,36.0,78,100,5.28
512,Teguldet,RU,2021-01-28 16:08:29,57.3064,88.1667,-15.18,89,100,7.23
513,Luebo,CD,2021-01-28 16:08:29,-5.35,21.4167,82.54,65,93,1.05
514,Valdemarpils,LV,2021-01-28 16:08:29,57.3707,22.5919,30.2,100,0,9.22
515,Maun,BW,2021-01-28 16:08:30,-19.9833,23.4167,71.6,100,75,5.75
516,Mitsamiouli,KM,2021-01-28 16:08:30,-11.3847,43.2844,83.28,63,1,4.81
517,Gondar,ET,2021-01-28 16:08:30,12.6,37.4667,65.57,30,82,7.56
518,Saint-Augustin,CA,2021-01-28 16:08:30,51.226,-58.6502,18.7,92,37,9.91
519,Nemuro,JP,2021-01-28 16:08:30,43.3236,145.575,27.5,91,100,19.01
520,Goalpara,IN,2021-01-28 16:08:30,26.1667,90.6167,64.08,53,0,1.7
521,Alta Floresta,BR,2021-01-28 16:08:30,-9.8756,-56.0861,80.6,78,75,3.44
522,Salta,AR,2021-01-28 16:08:31,-24.7859,-65.4117,78.8,50,20,5.75
523,Kushima,JP,2021-01-28 16:08:31,31.4583,131.2333,41.7,69,10,19.33
524,Chama,CH,2021-01-28 16:08:31,47.1821,8.4636,50.0,71,75,12.66
525,Evensk,RU,2021-01-28 16:08:31,61.95,159.2333,-2.81,86,100,12.8
526,Kulhudhuffushi,MV,2021-01-28 16:08:31,6.6221,73.07,81.48,64,81,10.02
527,Nouadhibou,MR,2021-01-28 16:08:31,20.931,-17.0347,72.36,50,0,4.32
528,Port Augusta,AU,2021-01-28 16:08:31,-32.5,137.7667,71.01,83,75,11.5
529,Severodvinsk,RU,2021-01-28 16:08:31,64.5635,39.8302,6.8,78,90,13.42
530,Goya,AR,2021-01-28 16:08:32,-29.14,-59.2626,89.28,41,70,7.92
531,Balkanabat,TM,2021-01-28 16:08:32,39.5108,54.3671,54.73,37,91,15.61
532,Araouane,ML,2021-01-28 16:08:32,18.9048,-3.5265,87.75,10,0,11.14
533,Bardiyah,LY,2021-01-28 16:08:32,31.7561,25.0865,53.8,76,100,29.28
534,Yaring,TH,2021-01-28 16:08:32,6.8662,101.3689,76.44,85,38,11.79
535,Eichenzell,DE,2021-01-28 16:08:32,50.4934,9.6961,37.99,90,100,4.32
536,Oussouye,SN,2021-01-28 16:08:32,12.485,-16.5469,98.6,26,0,6.91
537,Manta,EC,2021-01-28 16:08:32,-0.95,-80.7333,78.8,83,90,5.75
538,Liusha,CN,2021-01-28 16:08:33,27.2098,108.59,41.27,77,66,3.11
539,Itarema,BR,2021-01-28 16:08:33,-2.9248,-39.9167,87.21,60,100,15.28
540,Ekuvukeni,ZA,2021-01-28 16:08:33,-28.4675,30.1551,61.95,87,99,0.83
541,Leh,IN,2021-01-28 16:08:33,34.1667,77.5833,4.51,60,87,0.27
542,Nome,US,2021-01-28 16:08:33,64.5011,-165.4064,15.8,57,90,4.61
543,Benguela,AO,2021-01-28 16:08:33,-12.5763,13.4055,81.41,64,0,9.64
544,Ilhabela,BR,2021-01-28 16:08:33,-23.7781,-45.3581,89.51,52,100,5.53
545,Nanakuli,US,2021-01-28 16:08:33,21.3906,-158.1547,73.4,73,20,5.75
546,Dembi Dolo,ET,2021-01-28 16:08:34,8.5333,34.8,69.76,55,65,2.26
547,Jijiga,ET,2021-01-28 16:08:34,9.35,42.8,68.11,32,0,13.18
548,Lakes Entrance,AU,2021-01-28 16:08:34,-37.8811,147.981,61.0,83,34,4.0
549,Santa Lucia,ES,2021-01-28 16:08:34,27.9117,-15.5407,73.99,78,0,5.75
550,Raudeberg,NO,2021-01-28 16:08:34,61.9875,5.1352,30.99,79,94,20.78
551,Kanniyakumari,IN,2021-01-28 16:08:34,8.0833,77.5667,78.03,78,29,18.52
552,Darnah,LY,2021-01-28 16:08:34,32.767,22.6367,53.73,73,89,19.82
553,Baghdad,IQ,2021-01-28 16:08:34,33.3406,44.4009,59.0,51,0,9.53
554,Ayr,GB,2021-01-28 16:08:35,55.4627,-4.6339,41.0,93,90,5.75
555,Gat,IL,2021-01-28 16:06:04,31.61,34.7642,55.99,17,66,6.4
556,Urumqi,CN,2021-01-28 16:06:15,43.801,87.6005,6.8,92,13,2.24
557,West Bay,KY,2021-01-28 16:08:35,19.3667,-81.4167,82.99,78,20,10.36
558,Ulundi,ZA,2021-01-28 16:08:35,-28.3352,31.4162,65.3,91,100,1.66
559,Oranjemund,NA,2021-01-28 16:08:35,-28.55,16.4333,67.3,62,0,26.02
560,Boden,SE,2021-01-28 16:06:46,65.8252,21.6886,15.8,92,90,5.75
561,Westwego,US,2021-01-28 16:08:35,29.906,-90.1423,46.99,61,1,8.05
562,Churapcha,RU,2021-01-28 16:08:36,62.0025,132.4325,-44.84,76,100,1.61
563,Zurrieq,MT,2021-01-28 16:08:36,35.8311,14.4742,57.99,72,20,11.5
564,Erzin,TR,2021-01-28 16:08:36,36.9559,36.2,55.99,59,100,13.0
565,Sao Jose Da Coroa Grande,BR,2021-01-28 16:08:36,-8.8978,-35.1478,83.25,65,95,9.31
566,Wichian Buri,TH,2021-01-28 16:08:36,15.6578,101.106,81.21,44,28,19.73
567,Laurel,US,2021-01-28 16:08:36,39.0993,-76.8483,32.0,47,1,13.8
568,Smithers,CA,2021-01-28 16:08:36,54.7804,-127.1743,5.0,78,20,3.44
569,Labuhan,ID,2021-01-28 16:08:36,-6.8844,112.2051,77.0,90,90,18.16
570,Mehamn,NO,2021-01-28 16:08:37,71.0357,27.8492,26.6,58,75,17.27
571,Kisangani,CD,2021-01-28 16:08:37,0.5167,25.2,77.0,83,75,0.67
572,Tilichiki,RU,2021-01-28 16:08:37,60.4667,166.1,-3.55,93,100,8.19
573,Privas,FR,2021-01-28 16:08:37,44.5833,4.5,54.0,93,90,5.75
574,Sangar,RU,2021-01-28 16:08:37,63.9242,127.4739,-54.31,69,51,1.7
575,Daru,PG,2021-01-28 16:08:37,-9.0763,143.2092,78.82,87,100,11.7
576,Calvia,ES,2021-01-28 16:08:37,39.5657,2.5062,68.0,60,0,9.22
577,Nuuk,GL,2021-01-28 16:08:37,64.1835,-51.7216,30.2,51,20,17.27
578,Polovinnoye,RU,2021-01-28 16:08:38,54.7914,65.9864,20.73,94,100,18.01
579,Kruisfontein,ZA,2021-01-28 16:08:38,-34.0033,24.7314,73.0,52,0,7.0
